OSD.flyTime [s],CUSTOM.updateTime,OSD.latitude,OSD.longitude,OSD.altitude [m],OSD.speed [m/s],OSD.vSpeed [m/s],OSD.heading,BATTERY.chargeLevel [%],BATTERY.temperature [°C],OSD.flycState
0,2024-01-15T10:00:00Z,51.5074,-0.1278,0.0,2.0,0.833,90,100.0,27.9,TakeOff
1,2024-01-15T10:00:01Z,51.5074167,-0.1277833,0.83,2.05,0.833,90,100.0,27.9,TakeOff
2,2024-01-15T10:00:02Z,51.5074333,-0.1277667,1.67,2.1,0.833,90,100.0,28.0,TakeOff
3,2024-01-15T10:00:03Z,51.50745,-0.12775,2.5,2.15,0.833,90,100.0,28.4,TakeOff
4,2024-01-15T10:00:04Z,51.5074667,-0.1277334,3.33,2.2,0.833,90,100.0,28.0,TakeOff
5,2024-01-15T10:00:05Z,51.5074833,-0.1277168,4.17,2.25,0.833,90,100.0,27.3,TakeOff
6,2024-01-15T10:00:06Z,51.5075,-0.1277002,5.0,2.3,0.833,90,100.0,28.2,TakeOff
7,2024-01-15T10:00:07Z,51.5075167,-0.1276836,5.83,2.35,0.833,90,100.0,28.0,TakeOff
8,2024-01-15T10:00:08Z,51.5075333,-0.1276671,6.67,2.4,0.833,90,100.0,28.0,TakeOff
9,2024-01-15T10:00:09Z,51.50755,-0.1276506,7.5,2.45,0.833,90,100.0,28.2,TakeOff
10,2024-01-15T10:00:10Z,51.5075667,-0.1276341,8.33,2.5,0.833,90,100.0,28.3,TakeOff
11,2024-01-15T10:00:11Z,51.5075833,-0.1276177,9.17,2.55,0.833,90,100.0,28.7,TakeOff
12,2024-01-15T10:00:12Z,51.5076,-0.1276013,10.0,2.6,0.833,90,100.0,28.5,TakeOff
13,2024-01-15T10:00:13Z,51.5076167,-0.127585,10.83,2.65,0.833,90,100.0,28.2,TakeOff
14,2024-01-15T10:00:14Z,51.5076333,-0.1275688,11.67,2.7,0.833,90,100.0,27.8,TakeOff
15,2024-01-15T10:00:15Z,51.50765,-0.1275526,12.5,2.75,0.833,90,100.0,27.7,TakeOff
16,2024-01-15T10:00:16Z,51.5076667,-0.1275365,13.33,2.8,0.833,90,100.0,28.3,TakeOff
17,2024-01-15T10:00:17Z,51.5076833,-0.1275204,14.17,2.85,0.833,90,100.0,28.9,TakeOff
18,2024-01-15T10:00:18Z,51.5077,-0.1275045,15.0,2.9,0.833,90,100.0,28.3,TakeOff
19,2024-01-15T10:00:19Z,51.5077167,-0.1274886,15.83,2.95,0.833,90,100.0,28.2,TakeOff
20,2024-01-15T10:00:20Z,51.5077333,-0.1274728,16.67,3.0,0.833,90,100.0,28.5,TakeOff
21,2024-01-15T10:00:21Z,51.50775,-0.1274571,17.5,3.05,0.833,90,100.0,27.6,TakeOff
22,2024-01-15T10:00:22Z,51.5077667,-0.1274415,18.33,3.1,0.833,90,100.0,28.2,TakeOff
23,2024-01-15T10:00:23Z,51.5077833,-0.127426,19.17,3.15,0.833,90,100.0,28.6,TakeOff
24,2024-01-15T10:00:24Z,51.5078,-0.1274106,20.0,3.2,0.833,90,100.0,28.8,TakeOff
25,2024-01-15T10:00:25Z,51.5078167,-0.1273953,20.83,3.25,0.833,90,100.0,28.2,TakeOff
26,2024-01-15T10:00:26Z,51.5078333,-0.1273801,21.67,3.3,0.833,90,100.0,28.6,TakeOff
27,2024-01-15T10:00:27Z,51.50785,-0.127365,22.5,3.35,0.833,90,100.0,28.5,TakeOff
28,2024-01-15T10:00:28Z,51.5078667,-0.1273501,23.33,3.4,0.833,90,100.0,28.8,TakeOff
29,2024-01-15T10:00:29Z,51.5078833,-0.1273353,24.17,3.45,0.833,90,100.0,27.8,TakeOff
30,2024-01-15T10:00:30Z,51.5079,-0.1273206,25.0,3.5,0.833,90,100.0,28.7,TakeOff
31,2024-01-15T10:00:31Z,51.5079167,-0.127306,25.83,3.55,0.833,90,100.0,27.7,TakeOff
32,2024-01-15T10:00:32Z,51.5079333,-0.1272916,26.67,3.6,0.833,90,100.0,27.1,TakeOff
33,2024-01-15T10:00:33Z,51.50795,-0.1272773,27.5,3.65,0.833,90,100.0,28.2,TakeOff
34,2024-01-15T10:00:34Z,51.5079667,-0.1272632,28.33,3.7,0.833,90,100.0,28.0,TakeOff
35,2024-01-15T10:00:35Z,51.5079833,-0.1272492,29.17,3.75,0.833,90,100.0,28.9,TakeOff
36,2024-01-15T10:00:36Z,51.508,-0.1272354,30.0,3.8,0.833,90,100.0,28.8,TakeOff
37,2024-01-15T10:00:37Z,51.5080167,-0.1272217,30.83,3.85,0.833,90,100.0,27.9,TakeOff
38,2024-01-15T10:00:38Z,51.5080333,-0.1272082,31.67,3.9,0.833,90,100.0,29.0,TakeOff
39,2024-01-15T10:00:39Z,51.50805,-0.1271948,32.5,3.95,0.833,90,100.0,28.0,TakeOff
40,2024-01-15T10:00:40Z,51.5080667,-0.1271816,33.33,4.0,0.833,90,100.0,28.5,TakeOff
41,2024-01-15T10:00:41Z,51.5080833,-0.1271686,34.17,4.05,0.833,90,100.0,28.4,TakeOff
42,2024-01-15T10:00:42Z,51.5081,-0.1271558,35.0,4.1,0.833,90,100.0,28.6,TakeOff
43,2024-01-15T10:00:43Z,51.5081167,-0.1271431,35.83,4.15,0.833,90,100.0,29.0,TakeOff
44,2024-01-15T10:00:44Z,51.5081333,-0.1271307,36.67,4.2,0.833,90,100.0,28.9,TakeOff
45,2024-01-15T10:00:45Z,51.50815,-0.1271184,37.5,4.25,0.833,90,100.0,28.8,TakeOff
46,2024-01-15T10:00:46Z,51.5081667,-0.1271063,38.33,4.3,0.833,90,100.0,29.0,TakeOff
47,2024-01-15T10:00:47Z,51.5081833,-0.1270944,39.17,4.35,0.833,90,100.0,28.9,TakeOff
48,2024-01-15T10:00:48Z,51.5082,-0.1270826,40.0,4.4,0.833,90,100.0,28.4,TakeOff
49,2024-01-15T10:00:49Z,51.5082167,-0.1270711,40.83,4.45,0.833,90,100.0,28.3,TakeOff
50,2024-01-15T10:00:50Z,51.5082333,-0.1270598,41.67,4.5,0.833,90,100.0,28.5,TakeOff
51,2024-01-15T10:00:51Z,51.50825,-0.1270487,42.5,4.55,0.833,90,100.0,29.0,TakeOff
52,2024-01-15T10:00:52Z,51.5082667,-0.1270378,43.33,4.6,0.833,90,100.0,28.6,TakeOff
53,2024-01-15T10:00:53Z,51.5082833,-0.1270271,44.17,4.65,0.833,90,100.0,29.9,TakeOff
54,2024-01-15T10:00:54Z,51.5083,-0.1270167,45.0,4.7,0.833,90,100.0,28.3,TakeOff
55,2024-01-15T10:00:55Z,51.5083167,-0.1270064,45.83,4.75,0.833,90,100.0,28.2,TakeOff
56,2024-01-15T10:00:56Z,51.5083333,-0.1269964,46.67,4.8,0.833,90,100.0,29.2,TakeOff
57,2024-01-15T10:00:57Z,51.50835,-0.1269866,47.5,4.85,0.833,90,100.0,29.5,TakeOff
58,2024-01-15T10:00:58Z,51.5083667,-0.126977,48.33,4.9,0.833,90,100.0,29.1,TakeOff
59,2024-01-15T10:00:59Z,51.5083833,-0.1269677,49.17,4.95,0.833,90,100.0,29.2,TakeOff
60,2024-01-15T10:01:00Z,51.5084,-0.1269585,51.14,4.97,-0.142,90,100.0,28.6,AutoFlight
61,2024-01-15T10:01:01Z,51.5084167,-0.1269496,50.76,4.57,0.003,90,100.0,29.0,AutoFlight
62,2024-01-15T10:01:02Z,51.5084333,-0.126941,49.75,5.22,0.058,90,100.0,30.0,AutoFlight
63,2024-01-15T10:01:03Z,51.50845,-0.1269326,50.5,4.82,-0.056,90,100.0,28.5,AutoFlight
64,2024-01-15T10:01:04Z,51.5084667,-0.1269244,50.76,4.83,-0.007,90,100.0,29.3,AutoFlight
65,2024-01-15T10:01:05Z,51.5084833,-0.1269165,49.42,4.91,-0.184,90,100.0,28.4,AutoFlight
66,2024-01-15T10:01:06Z,51.5085,-0.1269088,49.55,5.12,0.119,90,100.0,28.9,AutoFlight
67,2024-01-15T10:01:07Z,51.5085167,-0.1269014,50.21,5.05,0.108,90,100.0,29.4,AutoFlight
68,2024-01-15T10:01:08Z,51.5085333,-0.1268942,50.22,4.7,0.09,90,100.0,29.1,AutoFlight
69,2024-01-15T10:01:09Z,51.50855,-0.1268872,50.98,4.99,0.195,90,100.0,28.8,AutoFlight
70,2024-01-15T10:01:10Z,51.5085667,-0.1268806,51.27,5.03,-0.052,90,100.0,28.4,AutoFlight
71,2024-01-15T10:01:11Z,51.5085833,-0.1268741,49.88,5.43,0.082,90,100.0,29.3,AutoFlight
72,2024-01-15T10:01:12Z,51.5086,-0.126868,48.1,5.21,0.056,90,100.0,28.7,AutoFlight
73,2024-01-15T10:01:13Z,51.5086167,-0.1268621,49.5,5.0,0.172,90,100.0,28.5,AutoFlight
74,2024-01-15T10:01:14Z,51.5086333,-0.1268564,49.66,5.41,-0.045,90,100.0,28.8,AutoFlight
75,2024-01-15T10:01:15Z,51.50865,-0.126851,50.08,4.63,0.022,90,100.0,28.4,AutoFlight
76,2024-01-15T10:01:16Z,51.5086667,-0.1268459,50.71,5.0,0.228,90,100.0,29.2,AutoFlight
77,2024-01-15T10:01:17Z,51.5086833,-0.126841,51.09,4.61,-0.012,90,100.0,29.2,AutoFlight
78,2024-01-15T10:01:18Z,51.5087,-0.1268364,51.4,4.5,0.099,90,100.0,29.4,AutoFlight
79,2024-01-15T10:01:19Z,51.5087167,-0.1268321,51.23,5.21,0.005,90,100.0,28.8,AutoFlight
80,2024-01-15T10:01:20Z,51.5087333,-0.1268281,49.0,5.06,-0.019,90,100.0,30.1,AutoFlight
81,2024-01-15T10:01:21Z,51.50875,-0.1268243,49.51,5.1,-0.157,90,100.0,28.9,AutoFlight
82,2024-01-15T10:01:22Z,51.5087667,-0.1268208,50.21,5.25,0.145,90,100.0,29.1,AutoFlight
83,2024-01-15T10:01:23Z,51.5087833,-0.1268175,49.11,5.14,0.052,90,100.0,29.4,AutoFlight
84,2024-01-15T10:01:24Z,51.5088,-0.1268146,49.44,5.34,0.009,90,100.0,29.5,AutoFlight
85,2024-01-15T10:01:25Z,51.5088167,-0.1268119,51.02,5.18,0.029,90,100.0,30.3,AutoFlight
86,2024-01-15T10:01:26Z,51.5088333,-0.1268094,50.19,4.91,0.011,90,100.0,29.9,AutoFlight
87,2024-01-15T10:01:27Z,51.50885,-0.1268073,50.09,5.16,0.12,90,100.0,29.0,AutoFlight
88,2024-01-15T10:01:28Z,51.5088667,-0.1268054,48.62,5.09,0.023,90,100.0,28.9,AutoFlight
89,2024-01-15T10:01:29Z,51.5088833,-0.1268038,50.7,5.18,-0.099,90,100.0,29.5,AutoFlight
90,2024-01-15T10:01:30Z,51.5089,-0.1268025,49.84,4.56,0.045,90,100.0,29.2,AutoFlight
91,2024-01-15T10:01:31Z,51.5089167,-0.1268015,49.4,5.16,0.049,90,100.0,29.0,AutoFlight
92,2024-01-15T10:01:32Z,51.5089333,-0.1268007,50.32,5.3,-0.071,90,100.0,29.5,AutoFlight
93,2024-01-15T10:01:33Z,51.50895,-0.1268002,50.0,5.68,-0.186,90,100.0,29.6,AutoFlight
94,2024-01-15T10:01:34Z,51.5089667,-0.1268,49.76,4.97,0.19,90,100.0,29.3,AutoFlight
95,2024-01-15T10:01:35Z,51.5089833,-0.1268001,51.79,4.87,0.035,90,100.0,29.1,AutoFlight
96,2024-01-15T10:01:36Z,51.509,-0.1268004,49.45,5.02,-0.028,90,100.0,29.4,AutoFlight
97,2024-01-15T10:01:37Z,51.5090167,-0.1268011,48.32,5.6,-0.017,90,100.0,30.2,AutoFlight
98,2024-01-15T10:01:38Z,51.5090333,-0.126802,49.19,5.09,0.316,90,100.0,28.9,AutoFlight
99,2024-01-15T10:01:39Z,51.50905,-0.1268031,48.8,4.84,0.047,90,100.0,29.7,AutoFlight
100,2024-01-15T10:01:40Z,51.5090667,-0.1268046,51.03,4.92,-0.16,90,100.0,29.2,AutoFlight
101,2024-01-15T10:01:41Z,51.5090833,-0.1268063,50.99,5.14,-0.196,90,100.0,29.4,AutoFlight
102,2024-01-15T10:01:42Z,51.5091,-0.1268083,51.12,5.64,0.056,90,100.0,29.6,AutoFlight
103,2024-01-15T10:01:43Z,51.5091167,-0.1268106,49.01,4.75,0.005,90,100.0,29.7,AutoFlight
104,2024-01-15T10:01:44Z,51.5091333,-0.1268132,50.46,4.86,-0.115,90,100.0,29.1,AutoFlight
105,2024-01-15T10:01:45Z,51.50915,-0.126816,49.07,5.19,-0.231,90,100.0,29.3,AutoFlight
106,2024-01-15T10:01:46Z,51.5091667,-0.1268191,50.36,5.46,0.007,90,100.0,30.0,AutoFlight
107,2024-01-15T10:01:47Z,51.5091833,-0.1268225,49.68,4.78,-0.067,90,100.0,30.3,AutoFlight
108,2024-01-15T10:01:48Z,51.5092,-0.1268262,50.8,5.15,0.333,90,100.0,29.5,AutoFlight
109,2024-01-15T10:01:49Z,51.5092167,-0.1268301,50.5,5.09,-0.022,90,100.0,30.7,AutoFlight
110,2024-01-15T10:01:50Z,51.5092333,-0.1268343,51.21,4.58,-0.04,90,100.0,29.7,AutoFlight
111,2024-01-15T10:01:51Z,51.50925,-0.1268387,50.63,4.6,-0.226,90,100.0,28.6,AutoFlight
112,2024-01-15T10:01:52Z,51.5092667,-0.1268435,49.94,4.97,0.035,90,100.0,29.2,AutoFlight
113,2024-01-15T10:01:53Z,51.5092833,-0.1268484,49.02,4.39,0.033,90,100.0,29.8,AutoFlight
114,2024-01-15T10:01:54Z,51.5093,-0.1268537,50.79,5.24,-0.019,90,100.0,30.3,AutoFlight
115,2024-01-15T10:01:55Z,51.5093167,-0.1268592,49.89,4.8,-0.052,90,100.0,29.3,AutoFlight
116,2024-01-15T10:01:56Z,51.5093333,-0.126865,48.27,5.05,0.025,90,100.0,29.4,AutoFlight
117,2024-01-15T10:01:57Z,51.50935,-0.126871,49.43,5.11,0.172,90,100.0,29.6,AutoFlight
118,2024-01-15T10:01:58Z,51.5093667,-0.1268773,49.59,4.82,-0.007,90,100.0,29.0,AutoFlight
119,2024-01-15T10:01:59Z,51.5093833,-0.1268839,49.9,5.02,0.184,90,100.0,30.1,AutoFlight
120,2024-01-15T10:02:00Z,51.5096,-0.1268907,50.83,4.79,0.067,95,100.0,29.1,AutoFlight
121,2024-01-15T10:02:01Z,51.5095833,-0.1268978,50.25,5.13,-0.077,95,100.0,30.7,AutoFlight
122,2024-01-15T10:02:02Z,51.5095667,-0.1269051,50.45,4.43,0.055,95,100.0,29.5,AutoFlight
123,2024-01-15T10:02:03Z,51.50955,-0.1269126,50.0,5.14,0.039,95,100.0,28.7,AutoFlight
124,2024-01-15T10:02:04Z,51.5095333,-0.1269204,49.07,5.23,0.13,95,100.0,30.7,AutoFlight
125,2024-01-15T10:02:05Z,51.5095167,-0.1269285,51.44,4.38,0.077,95,100.0,28.8,AutoFlight
126,2024-01-15T10:02:06Z,51.5095,-0.1269368,51.29,5.08,-0.114,95,100.0,30.8,AutoFlight
127,2024-01-15T10:02:07Z,51.5094833,-0.1269453,50.52,4.43,0.029,95,100.0,29.4,AutoFlight
128,2024-01-15T10:02:08Z,51.5094667,-0.1269541,50.09,4.86,0.137,95,100.0,29.1,AutoFlight
129,2024-01-15T10:02:09Z,51.50945,-0.1269631,50.25,5.54,-0.083,95,100.0,29.9,AutoFlight
130,2024-01-15T10:02:10Z,51.5094333,-0.1269723,50.16,4.79,0.065,95,100.0,29.9,AutoFlight
131,2024-01-15T10:02:11Z,51.5094167,-0.1269818,49.24,5.53,0.079,95,100.0,29.7,AutoFlight
132,2024-01-15T10:02:12Z,51.5094,-0.1269915,49.49,4.76,0.123,95,100.0,29.8,AutoFlight
133,2024-01-15T10:02:13Z,51.5093833,-0.1270014,50.37,4.94,0.062,95,100.0,29.8,AutoFlight
134,2024-01-15T10:02:14Z,51.5093667,-0.1270116,50.61,4.95,0.083,95,100.0,30.2,AutoFlight
135,2024-01-15T10:02:15Z,51.50935,-0.1270219,49.91,4.74,-0.094,95,100.0,29.5,AutoFlight
136,2024-01-15T10:02:16Z,51.5093333,-0.1270325,49.21,5.26,-0.005,95,99.9,30.7,AutoFlight
137,2024-01-15T10:02:17Z,51.5093167,-0.1270433,51.82,5.01,-0.155,95,99.9,29.7,AutoFlight
138,2024-01-15T10:02:18Z,51.5093,-0.1270543,49.94,4.55,-0.025,95,99.9,30.1,AutoFlight
139,2024-01-15T10:02:19Z,51.5092833,-0.1270655,49.63,4.77,-0.076,95,99.9,30.8,AutoFlight
140,2024-01-15T10:02:20Z,51.5092667,-0.1270769,49.87,4.75,-0.037,95,99.9,30.4,AutoFlight
141,2024-01-15T10:02:21Z,51.50925,-0.1270885,49.45,5.14,0.073,95,99.9,30.3,AutoFlight
142,2024-01-15T10:02:22Z,51.5092333,-0.1271003,51.12,4.83,0.113,95,99.9,29.6,AutoFlight
143,2024-01-15T10:02:23Z,51.5092167,-0.1271123,49.68,5.36,0.082,95,99.9,30.0,AutoFlight
144,2024-01-15T10:02:24Z,51.5092,-0.1271245,49.05,5.17,-0.063,95,99.9,29.5,AutoFlight
145,2024-01-15T10:02:25Z,51.5091833,-0.1271369,49.48,5.07,-0.212,95,99.9,30.2,AutoFlight
146,2024-01-15T10:02:26Z,51.5091667,-0.1271495,50.14,4.82,0.104,95,99.9,30.3,AutoFlight
147,2024-01-15T10:02:27Z,51.50915,-0.1271622,49.51,4.8,0.07,95,99.9,29.3,AutoFlight
148,2024-01-15T10:02:28Z,51.5091333,-0.1271752,49.73,4.81,0.007,95,99.9,30.2,AutoFlight
149,2024-01-15T10:02:29Z,51.5091167,-0.1271883,50.03,5.34,0.023,95,99.9,29.9,AutoFlight
150,2024-01-15T10:02:30Z,51.5091,-0.1272015,49.03,5.22,0.053,95,99.9,30.8,AutoFlight
151,2024-01-15T10:02:31Z,51.5090833,-0.127215,49.4,5.01,-0.006,95,99.9,30.1,AutoFlight
152,2024-01-15T10:02:32Z,51.5090667,-0.1272286,50.01,4.49,0.082,95,99.9,30.4,AutoFlight
153,2024-01-15T10:02:33Z,51.50905,-0.1272423,50.9,5.67,-0.032,95,99.9,30.1,AutoFlight
154,2024-01-15T10:02:34Z,51.5090333,-0.1272562,50.01,5.58,-0.173,95,99.9,30.4,AutoFlight
155,2024-01-15T10:02:35Z,51.5090167,-0.1272703,48.82,4.23,-0.202,95,99.9,29.5,AutoFlight
156,2024-01-15T10:02:36Z,51.509,-0.1272845,50.86,4.74,-0.023,95,99.9,29.6,AutoFlight
157,2024-01-15T10:02:37Z,51.5089833,-0.1272989,50.49,4.67,0.132,95,99.9,29.7,AutoFlight
158,2024-01-15T10:02:38Z,51.5089667,-0.1273133,49.39,5.04,0.002,95,99.9,30.9,AutoFlight
159,2024-01-15T10:02:39Z,51.50895,-0.127328,50.1,4.64,-0.056,95,99.9,29.9,AutoFlight
160,2024-01-15T10:02:40Z,51.5089333,-0.1273427,50.58,5.12,-0.012,95,99.9,30.7,AutoFlight
161,2024-01-15T10:02:41Z,51.5089167,-0.1273576,49.58,4.96,0.018,95,99.9,31.0,AutoFlight
162,2024-01-15T10:02:42Z,51.5089,-0.1273726,49.92,4.89,-0.105,95,99.9,30.6,AutoFlight
163,2024-01-15T10:02:43Z,51.5088833,-0.1273877,49.53,5.1,-0.19,95,99.9,30.8,AutoFlight
164,2024-01-15T10:02:44Z,51.5088667,-0.127403,48.93,4.77,0.106,95,99.9,29.6,AutoFlight
165,2024-01-15T10:02:45Z,51.50885,-0.1274183,49.94,5.02,-0.1,95,99.9,31.0,AutoFlight
166,2024-01-15T10:02:46Z,51.5088333,-0.1274338,51.2,4.41,-0.145,95,99.9,30.7,AutoFlight
167,2024-01-15T10:02:47Z,51.5088167,-0.1274494,48.96,4.88,0.013,95,99.9,30.7,AutoFlight
168,2024-01-15T10:02:48Z,51.5088,-0.127465,49.82,5.03,-0.078,95,99.9,31.0,AutoFlight
169,2024-01-15T10:02:49Z,51.5087833,-0.1274808,49.6,5.1,-0.051,95,99.9,30.4,AutoFlight
170,2024-01-15T10:02:50Z,51.5087667,-0.1274966,49.87,4.95,-0.101,95,99.9,30.8,AutoFlight
171,2024-01-15T10:02:51Z,51.50875,-0.1275125,51.13,5.07,0.073,95,99.9,30.8,AutoFlight
172,2024-01-15T10:02:52Z,51.5087333,-0.1275285,50.74,5.09,0.021,95,99.9,30.8,AutoFlight
173,2024-01-15T10:02:53Z,51.5087167,-0.1275446,50.06,4.71,0.002,95,99.9,29.5,AutoFlight
174,2024-01-15T10:02:54Z,51.5087,-0.1275608,50.0,5.12,0.124,95,99.9,30.5,AutoFlight
175,2024-01-15T10:02:55Z,51.5086833,-0.127577,50.74,5.0,-0.102,95,99.9,29.7,AutoFlight
176,2024-01-15T10:02:56Z,51.5086667,-0.1275932,49.22,4.59,0.063,95,99.9,30.3,AutoFlight
177,2024-01-15T10:02:57Z,51.50865,-0.1276096,50.46,5.02,0.104,95,99.9,31.0,AutoFlight
178,2024-01-15T10:02:58Z,51.5086333,-0.127626,49.48,4.92,-0.053,95,99.9,29.7,AutoFlight
179,2024-01-15T10:02:59Z,51.5086167,-0.1276424,50.54,5.36,-0.001,95,99.9,30.2,AutoFlight
180,2024-01-15T10:03:00Z,51.5086,-0.1276589,50.87,4.3,0.018,95,99.9,30.6,AutoFlight
181,2024-01-15T10:03:01Z,51.5085833,-0.1276754,49.54,5.42,0.097,95,99.9,30.4,AutoFlight
182,2024-01-15T10:03:02Z,51.5085667,-0.127692,49.93,4.88,-0.051,95,99.9,29.9,AutoFlight
183,2024-01-15T10:03:03Z,51.50855,-0.1277085,51.1,5.31,0.08,95,99.9,30.0,AutoFlight
184,2024-01-15T10:03:04Z,51.5085333,-0.1277251,51.66,5.59,0.019,95,99.9,30.1,AutoFlight
185,2024-01-15T10:03:05Z,51.5085167,-0.1277418,49.31,5.13,-0.091,95,99.9,30.5,AutoFlight
186,2024-01-15T10:03:06Z,51.5085,-0.1277584,50.87,4.55,0.201,95,99.9,31.4,AutoFlight
187,2024-01-15T10:03:07Z,51.5084833,-0.1277751,49.01,4.58,-0.028,95,99.9,30.1,AutoFlight
188,2024-01-15T10:03:08Z,51.5084667,-0.1277917,49.79,4.23,-0.023,95,99.9,31.5,AutoFlight
189,2024-01-15T10:03:09Z,51.50845,-0.1278084,49.11,4.92,-0.149,95,99.9,30.9,AutoFlight
190,2024-01-15T10:03:10Z,51.5084333,-0.1278251,49.82,5.58,0.021,95,99.9,30.4,AutoFlight
191,2024-01-15T10:03:11Z,51.5084167,-0.1278417,50.44,4.85,-0.134,95,99.9,30.8,AutoFlight
192,2024-01-15T10:03:12Z,51.5084,-0.1278584,49.86,5.05,0.038,95,99.9,30.4,AutoFlight
193,2024-01-15T10:03:13Z,51.5083833,-0.127875,50.34,5.52,-0.111,95,99.9,31.5,AutoFlight
194,2024-01-15T10:03:14Z,51.5083667,-0.1278916,49.81,4.77,0.243,95,99.9,30.8,AutoFlight
195,2024-01-15T10:03:15Z,51.50835,-0.1279082,51.1,5.25,-0.168,95,99.9,30.8,AutoFlight
196,2024-01-15T10:03:16Z,51.5083333,-0.1279247,49.58,4.6,-0.177,95,99.9,30.8,AutoFlight
197,2024-01-15T10:03:17Z,51.5083167,-0.1279413,50.47,5.12,-0.031,95,99.9,30.3,AutoFlight
198,2024-01-15T10:03:18Z,51.5083,-0.1279577,49.21,4.83,-0.103,95,99.9,30.6,AutoFlight
199,2024-01-15T10:03:19Z,51.5082833,-0.1279742,49.98,4.73,-0.023,95,99.9,30.4,AutoFlight
200,2024-01-15T10:03:20Z,51.5082667,-0.1279906,50.0,5.15,0.018,95,99.9,31.0,AutoFlight
201,2024-01-15T10:03:21Z,51.50825,-0.1280069,48.68,4.89,0.028,95,99.9,31.1,AutoFlight
202,2024-01-15T10:03:22Z,51.5082333,-0.1280232,48.72,5.05,0.121,95,99.9,30.7,AutoFlight
203,2024-01-15T10:03:23Z,51.5082167,-0.1280394,49.92,5.14,0.025,95,99.9,31.1,AutoFlight
204,2024-01-15T10:03:24Z,51.5082,-0.1280555,50.06,5.05,-0.078,95,99.9,30.7,AutoFlight
205,2024-01-15T10:03:25Z,51.5081833,-0.1280716,51.0,4.94,-0.017,95,99.9,30.6,AutoFlight
206,2024-01-15T10:03:26Z,51.5081667,-0.1280876,50.63,4.74,0.091,95,99.9,30.4,AutoFlight
207,2024-01-15T10:03:27Z,51.50815,-0.1281035,49.15,5.06,0.013,95,99.9,31.0,AutoFlight
208,2024-01-15T10:03:28Z,51.5081333,-0.1281194,50.85,4.88,0.044,95,99.9,30.4,AutoFlight
209,2024-01-15T10:03:29Z,51.5081167,-0.1281351,51.01,5.19,0.054,95,99.9,31.0,AutoFlight
210,2024-01-15T10:03:30Z,51.5081,-0.1281508,49.37,4.9,0.05,95,99.9,30.9,AutoFlight
211,2024-01-15T10:03:31Z,51.5080833,-0.1281663,50.1,4.59,0.018,95,99.9,30.6,AutoFlight
212,2024-01-15T10:03:32Z,51.5080667,-0.1281818,49.13,4.95,-0.186,95,99.9,31.3,AutoFlight
213,2024-01-15T10:03:33Z,51.50805,-0.1281971,50.68,4.98,-0.099,95,99.9,30.5,AutoFlight
214,2024-01-15T10:03:34Z,51.5080333,-0.1282124,49.88,4.27,0.018,95,99.9,31.3,AutoFlight
215,2024-01-15T10:03:35Z,51.5080167,-0.1282275,49.75,4.85,0.018,95,99.9,31.1,AutoFlight
216,2024-01-15T10:03:36Z,51.508,-0.1282425,50.88,5.01,-0.069,95,99.9,30.8,AutoFlight
217,2024-01-15T10:03:37Z,51.5079833,-0.1282574,50.15,5.47,-0.032,95,99.9,30.5,AutoFlight
218,2024-01-15T10:03:38Z,51.5079667,-0.1282722,49.3,4.37,0.033,95,99.9,30.3,AutoFlight
219,2024-01-15T10:03:39Z,51.50795,-0.1282868,49.01,4.41,-0.112,95,99.9,31.3,AutoFlight
220,2024-01-15T10:03:40Z,51.5079333,-0.1283013,48.95,4.48,0.018,95,99.9,30.9,AutoFlight
221,2024-01-15T10:03:41Z,51.5079167,-0.1283156,50.35,5.22,-0.001,95,99.9,30.4,AutoFlight
222,2024-01-15T10:03:42Z,51.5079,-0.1283298,49.9,5.15,-0.058,95,99.9,30.3,AutoFlight
223,2024-01-15T10:03:43Z,51.5078833,-0.1283439,50.88,4.88,-0.041,95,99.9,31.1,AutoFlight
224,2024-01-15T10:03:44Z,51.5078667,-0.1283578,50.82,5.08,-0.033,95,99.9,31.4,AutoFlight
225,2024-01-15T10:03:45Z,51.50785,-0.1283716,51.72,5.42,0.067,95,99.9,30.5,AutoFlight
226,2024-01-15T10:03:46Z,51.5078333,-0.1283852,53.0,4.64,-0.037,95,99.9,30.8,AutoFlight
227,2024-01-15T10:03:47Z,51.5078167,-0.1283986,51.3,5.13,-0.143,95,99.9,31.3,AutoFlight
228,2024-01-15T10:03:48Z,51.5078,-0.1284119,50.44,4.9,-0.122,95,99.9,30.8,AutoFlight
229,2024-01-15T10:03:49Z,51.5077833,-0.128425,49.65,5.01,-0.052,95,99.9,31.5,AutoFlight
230,2024-01-15T10:03:50Z,51.5077667,-0.1284379,49.24,4.48,-0.074,95,99.9,31.8,AutoFlight
231,2024-01-15T10:03:51Z,51.50775,-0.1284506,49.54,5.7,0.049,95,99.9,30.6,AutoFlight
232,2024-01-15T10:03:52Z,51.5077333,-0.1284632,49.33,5.07,-0.118,95,99.9,32.4,AutoFlight
233,2024-01-15T10:03:53Z,51.5077167,-0.1284756,49.21,5.2,0.146,95,99.9,31.2,AutoFlight
234,2024-01-15T10:03:54Z,51.5077,-0.1284878,49.2,4.92,0.036,95,99.9,31.7,AutoFlight
235,2024-01-15T10:03:55Z,51.5076833,-0.1284998,50.05,4.58,0.004,95,99.9,30.9,AutoFlight
236,2024-01-15T10:03:56Z,51.5076667,-0.1285116,48.25,4.79,-0.143,95,99.9,31.5,AutoFlight
237,2024-01-15T10:03:57Z,51.50765,-0.1285232,51.56,5.56,-0.057,95,99.9,31.0,AutoFlight
238,2024-01-15T10:03:58Z,51.5076333,-0.1285346,50.55,5.32,-0.042,95,99.9,31.2,AutoFlight
239,2024-01-15T10:03:59Z,51.5076167,-0.1285458,51.77,4.97,-0.049,95,99.9,31.4,AutoFlight
240,2024-01-15T10:04:00Z,51.5078,-0.1285568,50.46,4.69,-0.025,100,99.9,30.7,AutoFlight
241,2024-01-15T10:04:01Z,51.5078167,-0.1285676,49.78,5.56,0.074,100,99.9,31.3,AutoFlight
242,2024-01-15T10:04:02Z,51.5078333,-0.1285782,49.25,4.91,0.105,100,99.9,31.1,AutoFlight
243,2024-01-15T10:04:03Z,51.50785,-0.1285885,51.16,4.59,-0.029,100,99.9,32.2,AutoFlight
244,2024-01-15T10:04:04Z,51.5078667,-0.1285987,48.39,5.36,-0.185,100,99.9,31.3,AutoFlight
245,2024-01-15T10:04:05Z,51.5078833,-0.1286086,49.86,5.25,-0.315,100,99.9,30.4,AutoFlight
246,2024-01-15T10:04:06Z,51.5079,-0.1286183,49.55,5.01,-0.089,100,99.9,31.3,AutoFlight
247,2024-01-15T10:04:07Z,51.5079167,-0.1286277,49.05,4.88,-0.085,100,99.9,31.5,AutoFlight
248,2024-01-15T10:04:08Z,51.5079333,-0.128637,50.47,5.43,-0.066,100,99.9,31.3,AutoFlight
249,2024-01-15T10:04:09Z,51.50795,-0.128646,50.04,4.91,-0.005,100,99.9,30.6,AutoFlight
250,2024-01-15T10:04:10Z,51.5079667,-0.1286548,50.3,4.73,-0.096,100,99.9,30.6,AutoFlight
251,2024-01-15T10:04:11Z,51.5079833,-0.1286633,50.93,4.96,0.115,100,99.9,31.6,AutoFlight
252,2024-01-15T10:04:12Z,51.508,-0.1286716,48.64,4.67,0.076,100,99.9,31.1,AutoFlight
253,2024-01-15T10:04:13Z,51.5080167,-0.1286796,49.13,4.95,-0.018,100,99.9,31.0,AutoFlight
254,2024-01-15T10:04:14Z,51.5080333,-0.1286874,49.74,4.86,-0.259,100,99.9,31.7,AutoFlight
255,2024-01-15T10:04:15Z,51.50805,-0.128695,49.35,5.39,-0.115,100,99.9,30.7,AutoFlight
256,2024-01-15T10:04:16Z,51.5080667,-0.1287023,50.95,4.52,-0.064,100,99.9,31.8,AutoFlight
257,2024-01-15T10:04:17Z,51.5080833,-0.1287094,49.74,4.5,0.019,100,99.9,31.4,AutoFlight
258,2024-01-15T10:04:18Z,51.5081,-0.1287162,51.03,5.18,0.304,100,99.9,30.7,AutoFlight
259,2024-01-15T10:04:19Z,51.5081167,-0.1287227,49.98,4.68,0.115,100,99.9,32.0,AutoFlight
260,2024-01-15T10:04:20Z,51.5081333,-0.128729,50.6,4.77,-0.075,100,99.9,30.6,AutoFlight
261,2024-01-15T10:04:21Z,51.50815,-0.1287351,51.37,5.15,-0.026,100,99.9,32.1,AutoFlight
262,2024-01-15T10:04:22Z,51.5081667,-0.1287408,50.6,5.29,-0.162,100,99.9,31.2,AutoFlight
263,2024-01-15T10:04:23Z,51.5081833,-0.1287463,50.16,5.11,0.096,100,99.9,31.1,AutoFlight
264,2024-01-15T10:04:24Z,51.5082,-0.1287516,50.1,5.66,0.069,100,99.9,32.1,AutoFlight
265,2024-01-15T10:04:25Z,51.5082167,-0.1287566,49.98,5.23,0.18,100,99.9,31.7,AutoFlight
266,2024-01-15T10:04:26Z,51.5082333,-0.1287613,50.98,4.74,0.059,100,99.9,32.1,AutoFlight
267,2024-01-15T10:04:27Z,51.50825,-0.1287658,49.4,5.33,-0.068,100,99.9,31.3,AutoFlight
268,2024-01-15T10:04:28Z,51.5082667,-0.12877,50.0,5.58,0.031,100,99.9,32.1,AutoFlight
269,2024-01-15T10:04:29Z,51.5082833,-0.1287739,49.41,5.02,-0.118,100,99.9,31.4,AutoFlight
270,2024-01-15T10:04:30Z,51.5083,-0.1287775,50.67,4.99,0.145,100,99.9,31.6,AutoFlight
271,2024-01-15T10:04:31Z,51.5083167,-0.1287809,49.84,5.38,-0.065,100,99.9,31.0,AutoFlight
272,2024-01-15T10:04:32Z,51.5083333,-0.128784,51.04,5.12,-0.217,100,99.9,31.8,AutoFlight
273,2024-01-15T10:04:33Z,51.50835,-0.1287868,49.68,5.52,-0.073,100,99.9,31.5,AutoFlight
274,2024-01-15T10:04:34Z,51.5083667,-0.1287894,49.27,4.68,-0.07,100,99.9,31.0,AutoFlight
275,2024-01-15T10:04:35Z,51.5083833,-0.1287917,49.18,4.52,-0.15,100,99.9,31.0,AutoFlight
276,2024-01-15T10:04:36Z,51.5084,-0.1287937,49.58,4.79,-0.123,100,99.9,32.0,AutoFlight
277,2024-01-15T10:04:37Z,51.5084167,-0.1287954,49.96,4.87,-0.046,100,99.9,32.6,AutoFlight
278,2024-01-15T10:04:38Z,51.5084333,-0.1287969,50.19,5.14,-0.259,100,99.9,31.5,AutoFlight
279,2024-01-15T10:04:39Z,51.50845,-0.1287981,48.26,4.87,0.037,100,99.9,31.5,AutoFlight
280,2024-01-15T10:04:40Z,51.5084667,-0.128799,50.41,4.69,0.058,100,99.9,31.1,AutoFlight
281,2024-01-15T10:04:41Z,51.5084833,-0.1287996,49.79,5.13,0.054,100,99.9,31.8,AutoFlight
282,2024-01-15T10:04:42Z,51.5085,-0.1287999,51.55,4.88,-0.045,100,99.9,30.5,AutoFlight
283,2024-01-15T10:04:43Z,51.5085167,-0.1288,51.42,4.89,-0.118,100,99.9,32.5,AutoFlight
284,2024-01-15T10:04:44Z,51.5085333,-0.1287998,50.99,5.03,-0.143,100,99.9,32.1,AutoFlight
285,2024-01-15T10:04:45Z,51.50855,-0.1287993,49.5,4.65,0.104,100,99.9,30.8,AutoFlight
286,2024-01-15T10:04:46Z,51.5085667,-0.1287985,50.45,5.14,0.205,100,99.9,32.1,AutoFlight
287,2024-01-15T10:04:47Z,51.5085833,-0.1287975,48.35,4.75,0.006,100,99.9,32.1,AutoFlight
288,2024-01-15T10:04:48Z,51.5086,-0.1287962,50.78,4.41,-0.033,100,99.9,32.4,AutoFlight
289,2024-01-15T10:04:49Z,51.5086167,-0.1287946,51.24,5.56,-0.039,100,99.9,32.5,AutoFlight
290,2024-01-15T10:04:50Z,51.5086333,-0.1287927,51.37,5.36,0.072,100,99.9,32.4,AutoFlight
291,2024-01-15T10:04:51Z,51.50865,-0.1287905,49.37,4.57,0.098,100,99.9,31.8,AutoFlight
292,2024-01-15T10:04:52Z,51.5086667,-0.1287881,49.98,4.83,-0.039,100,99.9,32.1,AutoFlight
293,2024-01-15T10:04:53Z,51.5086833,-0.1287854,49.18,5.02,0.025,100,99.9,32.0,AutoFlight
294,2024-01-15T10:04:54Z,51.5087,-0.1287825,49.41,5.24,0.187,100,99.9,31.7,AutoFlight
295,2024-01-15T10:04:55Z,51.5087167,-0.1287792,50.99,5.27,-0.265,100,99.9,31.7,AutoFlight
296,2024-01-15T10:04:56Z,51.5087333,-0.1287757,49.49,5.23,0.019,100,99.9,32.3,AutoFlight
297,2024-01-15T10:04:57Z,51.50875,-0.1287719,50.51,4.73,-0.075,100,99.9,31.5,AutoFlight
298,2024-01-15T10:04:58Z,51.5087667,-0.1287678,49.86,4.96,0.017,100,99.9,31.7,AutoFlight
299,2024-01-15T10:04:59Z,51.5087833,-0.1287635,50.73,5.28,0.155,100,99.9,32.4,AutoFlight
300,2024-01-15T10:05:00Z,51.5088,-0.1287589,50.15,5.2,0.061,100,99.9,31.8,AutoFlight
301,2024-01-15T10:05:01Z,51.5088167,-0.1287541,51.03,5.52,0.198,100,99.9,32.1,AutoFlight
302,2024-01-15T10:05:02Z,51.5088333,-0.1287489,50.26,5.12,-0.0,100,99.9,32.4,AutoFlight
303,2024-01-15T10:05:03Z,51.50885,-0.1287435,49.9,4.94,0.176,100,99.9,32.2,AutoFlight
304,2024-01-15T10:05:04Z,51.5088667,-0.1287379,50.05,5.26,0.015,100,99.9,32.3,AutoFlight
305,2024-01-15T10:05:05Z,51.5088833,-0.128732,49.95,4.63,-0.003,100,99.9,31.6,AutoFlight
306,2024-01-15T10:05:06Z,51.5089,-0.1287258,50.17,4.65,0.092,100,99.9,32.6,AutoFlight
307,2024-01-15T10:05:07Z,51.5089167,-0.1287194,50.22,4.97,0.042,100,99.9,31.2,AutoFlight
308,2024-01-15T10:05:08Z,51.5089333,-0.1287127,49.12,4.96,0.035,100,99.9,32.2,AutoFlight
309,2024-01-15T10:05:09Z,51.50895,-0.1287058,49.2,5.04,-0.045,100,99.9,31.7,AutoFlight
310,2024-01-15T10:05:10Z,51.5089667,-0.1286986,50.26,4.94,0.12,100,99.9,32.6,AutoFlight
311,2024-01-15T10:05:11Z,51.5089833,-0.1286911,50.59,5.1,-0.085,100,99.9,31.8,AutoFlight
312,2024-01-15T10:05:12Z,51.509,-0.1286835,48.82,5.86,-0.108,100,99.9,32.2,AutoFlight
313,2024-01-15T10:05:13Z,51.5090167,-0.1286755,49.71,4.92,-0.058,100,99.9,31.3,AutoFlight
314,2024-01-15T10:05:14Z,51.5090333,-0.1286673,49.2,4.58,-0.013,100,99.9,31.9,AutoFlight
315,2024-01-15T10:05:15Z,51.50905,-0.1286589,49.45,5.06,-0.058,100,99.9,32.8,AutoFlight
316,2024-01-15T10:05:16Z,51.5090667,-0.1286503,49.69,5.07,-0.133,100,99.9,32.6,AutoFlight
317,2024-01-15T10:05:17Z,51.5090833,-0.1286414,49.68,5.12,0.033,100,99.9,32.2,AutoFlight
318,2024-01-15T10:05:18Z,51.5091,-0.1286323,50.17,4.88,0.135,100,99.9,32.8,AutoFlight
319,2024-01-15T10:05:19Z,51.5091167,-0.1286229,50.39,4.65,-0.11,100,99.9,32.0,AutoFlight
320,2024-01-15T10:05:20Z,51.5091333,-0.1286133,49.8,5.13,-0.09,100,99.9,33.0,AutoFlight
321,2024-01-15T10:05:21Z,51.50915,-0.1286035,50.0,4.4,-0.048,100,99.9,31.1,AutoFlight
322,2024-01-15T10:05:22Z,51.5091667,-0.1285935,49.4,4.84,-0.061,100,99.9,32.2,AutoFlight
323,2024-01-15T10:05:23Z,51.5091833,-0.1285832,49.68,4.82,0.15,100,99.9,33.0,AutoFlight
324,2024-01-15T10:05:24Z,51.5092,-0.1285728,49.09,5.38,-0.162,100,99.9,32.0,AutoFlight
325,2024-01-15T10:05:25Z,51.5092167,-0.1285621,51.22,4.33,0.057,100,99.9,31.8,AutoFlight
326,2024-01-15T10:05:26Z,51.5092333,-0.1285512,49.88,4.95,0.17,100,99.9,32.0,AutoFlight
327,2024-01-15T10:05:27Z,51.50925,-0.1285401,49.94,5.19,-0.025,100,99.9,32.0,AutoFlight
328,2024-01-15T10:05:28Z,51.5092667,-0.1285288,49.95,5.03,0.088,100,99.9,32.0,AutoFlight
329,2024-01-15T10:05:29Z,51.5092833,-0.1285173,49.64,5.1,-0.017,100,99.9,32.4,AutoFlight
330,2024-01-15T10:05:30Z,51.5093,-0.1285055,49.99,4.79,-0.08,100,99.9,32.7,AutoFlight
331,2024-01-15T10:05:31Z,51.5093167,-0.1284936,49.12,5.35,0.022,100,99.9,31.9,AutoFlight
332,2024-01-15T10:05:32Z,51.5093333,-0.1284815,50.23,5.05,0.076,100,99.9,33.1,AutoFlight
333,2024-01-15T10:05:33Z,51.50935,-0.1284692,49.71,4.79,-0.061,100,99.9,32.0,AutoFlight
334,2024-01-15T10:05:34Z,51.5093667,-0.1284568,49.4,5.09,0.002,100,99.9,32.3,AutoFlight
335,2024-01-15T10:05:35Z,51.5093833,-0.1284441,49.41,5.1,-0.05,100,99.9,32.0,AutoFlight
336,2024-01-15T10:05:36Z,51.5094,-0.1284313,49.88,4.92,-0.107,100,99.9,33.0,AutoFlight
337,2024-01-15T10:05:37Z,51.5094167,-0.1284183,50.68,5.01,0.013,100,99.9,32.8,AutoFlight
338,2024-01-15T10:05:38Z,51.5094333,-0.1284051,49.98,5.27,0.166,100,99.9,32.6,AutoFlight
339,2024-01-15T10:05:39Z,51.50945,-0.1283917,50.35,5.26,-0.034,100,99.9,32.0,AutoFlight
340,2024-01-15T10:05:40Z,51.5094667,-0.1283782,50.72,4.53,0.179,100,99.9,33.1,AutoFlight
341,2024-01-15T10:05:41Z,51.5094833,-0.1283645,50.15,5.02,0.175,100,99.9,32.2,AutoFlight
342,2024-01-15T10:05:42Z,51.5095,-0.1283507,49.07,4.82,-0.026,100,99.9,32.1,AutoFlight
343,2024-01-15T10:05:43Z,51.5095167,-0.1283367,50.12,5.04,-0.081,100,99.9,33.5,AutoFlight
344,2024-01-15T10:05:44Z,51.5095333,-0.1283226,48.89,4.62,0.038,100,99.9,32.6,AutoFlight
345,2024-01-15T10:05:45Z,51.50955,-0.1283083,50.33,4.81,-0.103,100,99.9,32.4,AutoFlight
346,2024-01-15T10:05:46Z,51.5095667,-0.1282939,49.45,5.16,-0.048,100,99.9,33.1,AutoFlight
347,2024-01-15T10:05:47Z,51.5095833,-0.1282793,50.47,5.31,0.09,100,99.9,33.1,AutoFlight
348,2024-01-15T10:05:48Z,51.5096,-0.1282646,50.62,4.84,-0.026,100,99.9,31.8,AutoFlight
349,2024-01-15T10:05:49Z,51.5096167,-0.1282498,50.23,4.8,0.04,100,99.9,33.0,AutoFlight
350,2024-01-15T10:05:50Z,51.5096333,-0.1282348,48.92,4.7,-0.035,100,99.9,32.5,AutoFlight
351,2024-01-15T10:05:51Z,51.50965,-0.1282198,50.13,4.65,0.005,100,99.9,31.9,AutoFlight
352,2024-01-15T10:05:52Z,51.5096667,-0.1282046,48.28,5.21,-0.131,100,99.9,32.5,AutoFlight
353,2024-01-15T10:05:53Z,51.5096833,-0.1281893,48.87,4.58,-0.04,100,99.9,32.6,AutoFlight
354,2024-01-15T10:05:54Z,51.5097,-0.1281739,50.79,5.13,-0.026,100,99.9,33.2,AutoFlight
355,2024-01-15T10:05:55Z,51.5097167,-0.1281584,50.89,5.12,-0.041,100,99.9,33.3,AutoFlight
356,2024-01-15T10:05:56Z,51.5097333,-0.1281428,51.41,5.2,0.177,100,99.9,33.3,AutoFlight
357,2024-01-15T10:05:57Z,51.50975,-0.1281271,50.68,4.67,-0.111,100,99.9,32.8,AutoFlight
358,2024-01-15T10:05:58Z,51.5097667,-0.1281113,48.66,4.82,0.087,100,99.9,32.5,AutoFlight
359,2024-01-15T10:05:59Z,51.5097833,-0.1280954,50.43,4.59,-0.049,100,99.9,33.4,AutoFlight
360,2024-01-15T10:06:00Z,51.51,-0.1280794,50.17,5.09,0.17,105,99.9,33.5,AutoFlight
361,2024-01-15T10:06:01Z,51.5099833,-0.1280634,49.3,5.4,-0.062,105,99.9,32.9,AutoFlight
362,2024-01-15T10:06:02Z,51.5099667,-0.1280473,50.01,5.32,-0.113,105,99.9,33.1,AutoFlight
363,2024-01-15T10:06:03Z,51.50995,-0.1280311,50.42,5.24,-0.021,105,99.9,33.4,AutoFlight
364,2024-01-15T10:06:04Z,51.5099333,-0.1280148,49.43,5.34,0.035,105,99.9,32.2,AutoFlight
365,2024-01-15T10:06:05Z,51.5099167,-0.1279985,50.33,5.05,-0.036,105,99.9,32.6,AutoFlight
366,2024-01-15T10:06:06Z,51.5099,-0.1279822,49.81,4.57,0.169,105,99.9,32.4,AutoFlight
367,2024-01-15T10:06:07Z,51.5098833,-0.1279658,49.47,5.34,0.059,105,99.9,33.3,AutoFlight
368,2024-01-15T10:06:08Z,51.5098667,-0.1279493,51.21,4.91,-0.105,105,99.9,33.4,AutoFlight
369,2024-01-15T10:06:09Z,51.50985,-0.1279328,50.64,4.9,-0.127,105,99.9,33.6,AutoFlight
370,2024-01-15T10:06:10Z,51.5098333,-0.1279163,50.46,4.59,0.078,105,99.9,32.3,AutoFlight
371,2024-01-15T10:06:11Z,51.5098167,-0.1278997,49.61,4.66,-0.064,105,99.9,32.6,AutoFlight
372,2024-01-15T10:06:12Z,51.5098,-0.1278831,49.51,5.22,0.029,105,99.9,33.3,AutoFlight
373,2024-01-15T10:06:13Z,51.5097833,-0.1278665,50.87,4.89,0.008,105,99.9,33.3,AutoFlight
374,2024-01-15T10:06:14Z,51.5097667,-0.1278498,51.37,5.27,0.138,105,99.9,33.6,AutoFlight
375,2024-01-15T10:06:15Z,51.50975,-0.1278332,50.85,4.46,0.088,105,99.9,33.2,AutoFlight
376,2024-01-15T10:06:16Z,51.5097333,-0.1278165,50.04,4.84,-0.043,105,99.9,33.3,AutoFlight
377,2024-01-15T10:06:17Z,51.5097167,-0.1277999,50.67,4.55,0.022,105,99.9,32.8,AutoFlight
378,2024-01-15T10:06:18Z,51.5097,-0.1277832,49.24,5.12,-0.033,105,99.9,32.8,AutoFlight
379,2024-01-15T10:06:19Z,51.5096833,-0.1277665,49.38,5.08,-0.001,105,99.9,32.6,AutoFlight
380,2024-01-15T10:06:20Z,51.5096667,-0.1277499,49.33,4.95,0.041,105,99.9,32.6,AutoFlight
381,2024-01-15T10:06:21Z,51.50965,-0.1277332,50.39,4.75,0.273,105,99.9,32.7,AutoFlight
382,2024-01-15T10:06:22Z,51.5096333,-0.1277166,49.37,5.06,-0.09,105,99.9,33.6,AutoFlight
383,2024-01-15T10:06:23Z,51.5096167,-0.1277,51.44,4.88,0.017,105,99.9,32.9,AutoFlight
384,2024-01-15T10:06:24Z,51.5096,-0.1276835,50.0,5.43,0.089,105,99.9,32.7,AutoFlight
385,2024-01-15T10:06:25Z,51.5095833,-0.1276669,51.24,5.35,0.049,105,99.9,32.9,AutoFlight
386,2024-01-15T10:06:26Z,51.5095667,-0.1276504,50.05,4.76,0.047,105,99.9,33.1,AutoFlight
387,2024-01-15T10:06:27Z,51.50955,-0.127634,48.21,5.28,0.019,105,99.9,33.8,AutoFlight
388,2024-01-15T10:06:28Z,51.5095333,-0.1276175,49.89,5.06,0.112,105,99.9,33.4,AutoFlight
389,2024-01-15T10:06:29Z,51.5095167,-0.1276012,50.23,5.96,-0.017,105,99.9,33.3,AutoFlight
390,2024-01-15T10:06:30Z,51.5095,-0.1275849,51.39,4.76,-0.104,105,99.9,32.5,AutoFlight
391,2024-01-15T10:06:31Z,51.5094833,-0.1275686,50.43,5.19,0.074,105,99.9,32.6,AutoFlight
392,2024-01-15T10:06:32Z,51.5094667,-0.1275525,50.8,5.36,-0.01,105,99.9,33.3,AutoFlight
393,2024-01-15T10:06:33Z,51.50945,-0.1275363,50.54,5.11,0.064,105,99.9,32.8,AutoFlight
394,2024-01-15T10:06:34Z,51.5094333,-0.1275203,49.86,4.64,0.063,105,99.9,33.6,AutoFlight
395,2024-01-15T10:06:35Z,51.5094167,-0.1275043,49.92,5.09,-0.156,105,99.9,33.8,AutoFlight
396,2024-01-15T10:06:36Z,51.5094,-0.1274885,49.63,5.04,0.112,105,99.9,33.0,AutoFlight
397,2024-01-15T10:06:37Z,51.5093833,-0.1274727,50.96,5.04,0.003,105,99.9,33.6,AutoFlight
398,2024-01-15T10:06:38Z,51.5093667,-0.127457,49.0,5.18,0.006,105,99.9,33.9,AutoFlight
399,2024-01-15T10:06:39Z,51.50935,-0.1274414,49.83,4.89,0.037,105,99.9,33.3,AutoFlight
400,2024-01-15T10:06:40Z,51.5093333,-0.1274258,49.06,4.94,0.127,105,99.9,33.3,AutoFlight
401,2024-01-15T10:06:41Z,51.5093167,-0.1274104,49.3,5.21,-0.185,105,99.9,32.3,AutoFlight
402,2024-01-15T10:06:42Z,51.5093,-0.1273952,50.0,5.05,0.022,105,99.9,33.0,AutoFlight
403,2024-01-15T10:06:43Z,51.5092833,-0.12738,49.88,4.58,0.022,105,99.9,32.6,AutoFlight
404,2024-01-15T10:06:44Z,51.5092667,-0.1273649,49.88,5.08,-0.176,105,99.9,33.2,AutoFlight
405,2024-01-15T10:06:45Z,51.50925,-0.12735,50.63,5.46,-0.15,105,99.9,33.6,AutoFlight
406,2024-01-15T10:06:46Z,51.5092333,-0.1273351,49.01,4.6,0.16,105,99.9,33.8,AutoFlight
407,2024-01-15T10:06:47Z,51.5092167,-0.1273204,49.36,5.07,0.064,105,99.9,33.6,AutoFlight
408,2024-01-15T10:06:48Z,51.5092,-0.1273059,51.8,5.18,-0.299,105,99.9,33.3,AutoFlight
409,2024-01-15T10:06:49Z,51.5091833,-0.1272915,49.41,4.94,0.001,105,99.8,33.2,AutoFlight
410,2024-01-15T10:06:50Z,51.5091667,-0.1272772,49.13,5.41,0.06,105,99.8,33.2,AutoFlight
411,2024-01-15T10:06:51Z,51.50915,-0.1272631,50.54,5.2,0.127,105,99.8,33.0,AutoFlight
412,2024-01-15T10:06:52Z,51.5091333,-0.1272491,50.62,4.82,0.116,105,99.8,33.4,AutoFlight
413,2024-01-15T10:06:53Z,51.5091167,-0.1272352,48.18,5.01,-0.178,105,99.8,33.4,AutoFlight
414,2024-01-15T10:06:54Z,51.5091,-0.1272216,49.95,4.88,-0.149,105,99.8,33.0,AutoFlight
415,2024-01-15T10:06:55Z,51.5090833,-0.127208,49.32,4.93,0.129,105,99.8,33.9,AutoFlight
416,2024-01-15T10:06:56Z,51.5090667,-0.1271947,49.62,5.38,-0.137,105,99.8,33.9,AutoFlight
417,2024-01-15T10:06:57Z,51.50905,-0.1271815,49.86,5.07,0.064,105,99.8,33.3,AutoFlight
418,2024-01-15T10:06:58Z,51.5090333,-0.1271685,50.64,5.0,0.241,105,99.8,33.5,AutoFlight
419,2024-01-15T10:06:59Z,51.5090167,-0.1271557,51.02,5.19,-0.117,105,99.8,34.3,AutoFlight
420,2024-01-15T10:07:00Z,51.509,-0.127143,49.15,4.33,0.085,105,99.8,34.2,AutoFlight
421,2024-01-15T10:07:01Z,51.5089833,-0.1271305,50.04,4.92,0.158,105,99.8,34.0,AutoFlight
422,2024-01-15T10:07:02Z,51.5089667,-0.1271183,49.48,5.22,-0.124,105,99.8,33.4,AutoFlight
423,2024-01-15T10:07:03Z,51.50895,-0.1271062,49.16,4.34,-0.118,105,99.8,34.3,AutoFlight
424,2024-01-15T10:07:04Z,51.5089333,-0.1270942,49.12,4.83,-0.116,105,99.8,34.1,AutoFlight
425,2024-01-15T10:07:05Z,51.5089167,-0.1270825,50.0,5.15,-0.011,105,99.8,33.1,AutoFlight
426,2024-01-15T10:07:06Z,51.5089,-0.127071,49.22,5.25,-0.006,105,99.8,34.1,AutoFlight
427,2024-01-15T10:07:07Z,51.5088833,-0.1270597,47.47,5.33,-0.049,105,99.8,34.8,AutoFlight
428,2024-01-15T10:07:08Z,51.5088667,-0.1270486,49.59,5.01,0.066,105,99.8,33.3,AutoFlight
429,2024-01-15T10:07:09Z,51.50885,-0.1270377,50.7,4.81,0.129,105,99.8,34.1,AutoFlight
430,2024-01-15T10:07:10Z,51.5088333,-0.127027,50.4,4.78,-0.021,105,99.8,33.9,AutoFlight
431,2024-01-15T10:07:11Z,51.5088167,-0.1270166,48.37,4.83,0.094,105,99.8,33.1,AutoFlight
432,2024-01-15T10:07:12Z,51.5088,-0.1270063,51.02,4.81,0.032,105,99.8,33.2,AutoFlight
433,2024-01-15T10:07:13Z,51.5087833,-0.1269963,50.39,5.14,0.114,105,99.8,34.5,AutoFlight
434,2024-01-15T10:07:14Z,51.5087667,-0.1269865,51.0,5.06,-0.123,105,99.8,34.5,AutoFlight
435,2024-01-15T10:07:15Z,51.50875,-0.1269769,48.96,4.87,0.074,105,99.8,34.0,AutoFlight
436,2024-01-15T10:07:16Z,51.5087333,-0.1269676,51.27,5.0,-0.169,105,99.8,33.7,AutoFlight
437,2024-01-15T10:07:17Z,51.5087167,-0.1269584,50.14,4.89,0.141,105,99.8,33.7,AutoFlight
438,2024-01-15T10:07:18Z,51.5087,-0.1269496,48.85,5.14,-0.115,105,99.8,34.7,AutoFlight
439,2024-01-15T10:07:19Z,51.5086833,-0.1269409,50.22,4.58,0.108,105,99.8,35.1,AutoFlight
440,2024-01-15T10:07:20Z,51.5086667,-0.1269325,48.4,5.27,0.048,105,99.8,34.0,AutoFlight
441,2024-01-15T10:07:21Z,51.50865,-0.1269243,50.27,5.15,-0.069,105,99.8,34.6,AutoFlight
442,2024-01-15T10:07:22Z,51.5086333,-0.1269164,48.92,5.59,0.153,105,99.8,33.3,AutoFlight
443,2024-01-15T10:07:23Z,51.5086167,-0.1269087,50.0,5.43,-0.049,105,99.8,33.8,AutoFlight
444,2024-01-15T10:07:24Z,51.5086,-0.1269013,49.68,5.35,-0.061,105,99.8,33.9,AutoFlight
445,2024-01-15T10:07:25Z,51.5085833,-0.1268941,50.43,4.94,-0.087,105,99.8,33.3,AutoFlight
446,2024-01-15T10:07:26Z,51.5085667,-0.1268872,48.79,4.65,-0.172,105,99.8,33.6,AutoFlight
447,2024-01-15T10:07:27Z,51.50855,-0.1268805,50.24,5.02,-0.083,105,99.8,33.5,AutoFlight
448,2024-01-15T10:07:28Z,51.5085333,-0.1268741,49.21,4.58,-0.124,105,99.8,34.3,AutoFlight
449,2024-01-15T10:07:29Z,51.5085167,-0.1268679,48.88,5.01,-0.062,105,99.8,35.2,AutoFlight
450,2024-01-15T10:07:30Z,51.5085,-0.126862,48.56,5.06,-0.033,105,99.8,33.6,AutoFlight
451,2024-01-15T10:07:31Z,51.5084833,-0.1268564,50.25,5.05,-0.107,105,99.8,34.2,AutoFlight
452,2024-01-15T10:07:32Z,51.5084667,-0.126851,50.31,5.39,-0.061,105,99.8,34.8,AutoFlight
453,2024-01-15T10:07:33Z,51.50845,-0.1268458,49.84,4.41,0.052,105,99.8,34.0,AutoFlight
454,2024-01-15T10:07:34Z,51.5084333,-0.126841,49.29,5.28,-0.047,105,99.8,34.6,AutoFlight
455,2024-01-15T10:07:35Z,51.5084167,-0.1268364,49.93,5.23,0.068,105,99.8,34.3,AutoFlight
456,2024-01-15T10:07:36Z,51.5084,-0.1268321,49.17,5.28,0.002,105,99.8,35.1,AutoFlight
457,2024-01-15T10:07:37Z,51.5083833,-0.126828,50.38,5.23,-0.076,105,99.8,33.9,AutoFlight
458,2024-01-15T10:07:38Z,51.5083667,-0.1268242,50.08,4.65,-0.117,105,99.8,34.0,AutoFlight
459,2024-01-15T10:07:39Z,51.50835,-0.1268207,49.94,5.06,0.112,105,99.8,33.9,AutoFlight
460,2024-01-15T10:07:40Z,51.5083333,-0.1268175,50.54,4.96,-0.019,105,99.8,34.2,AutoFlight
461,2024-01-15T10:07:41Z,51.5083167,-0.1268145,48.35,5.02,-0.064,105,99.8,33.7,AutoFlight
462,2024-01-15T10:07:42Z,51.5083,-0.1268118,48.49,4.87,-0.188,105,99.8,34.6,AutoFlight
463,2024-01-15T10:07:43Z,51.5082833,-0.1268094,49.81,4.5,-0.067,105,99.8,34.5,AutoFlight
464,2024-01-15T10:07:44Z,51.5082667,-0.1268073,49.52,4.92,-0.037,105,99.8,34.1,AutoFlight
465,2024-01-15T10:07:45Z,51.50825,-0.1268054,48.64,4.99,-0.056,105,99.8,35.7,AutoFlight
466,2024-01-15T10:07:46Z,51.5082333,-0.1268038,49.83,4.86,0.099,105,99.8,34.1,AutoFlight
467,2024-01-15T10:07:47Z,51.5082167,-0.1268025,50.2,4.74,0.156,105,99.8,33.9,AutoFlight
468,2024-01-15T10:07:48Z,51.5082,-0.1268015,50.3,5.34,-0.03,105,99.8,34.2,AutoFlight
469,2024-01-15T10:07:49Z,51.5081833,-0.1268007,50.47,5.2,-0.109,105,99.8,34.3,AutoFlight
470,2024-01-15T10:07:50Z,51.5081667,-0.1268002,49.24,4.78,-0.065,105,99.8,34.8,AutoFlight
471,2024-01-15T10:07:51Z,51.50815,-0.1268,51.28,5.78,-0.006,105,99.8,33.8,AutoFlight
472,2024-01-15T10:07:52Z,51.5081333,-0.1268001,49.22,5.48,-0.154,105,99.8,34.1,AutoFlight
473,2024-01-15T10:07:53Z,51.5081167,-0.1268004,49.55,5.52,-0.101,105,99.8,34.8,AutoFlight
474,2024-01-15T10:07:54Z,51.5081,-0.1268011,51.05,4.95,0.047,105,99.8,33.5,AutoFlight
475,2024-01-15T10:07:55Z,51.5080833,-0.126802,49.93,4.94,-0.258,105,99.8,34.5,AutoFlight
476,2024-01-15T10:07:56Z,51.5080667,-0.1268031,50.28,4.49,-0.141,105,99.8,33.9,AutoFlight
477,2024-01-15T10:07:57Z,51.50805,-0.1268046,49.58,4.91,-0.096,105,99.8,33.8,AutoFlight
478,2024-01-15T10:07:58Z,51.5080333,-0.1268063,50.25,4.86,-0.011,105,99.8,34.2,AutoFlight
479,2024-01-15T10:07:59Z,51.5080167,-0.1268084,50.37,4.95,0.086,105,99.8,34.4,AutoFlight
480,2024-01-15T10:08:00Z,51.5082,-0.1268106,50.71,5.37,-0.146,110,99.8,34.8,AutoFlight
481,2024-01-15T10:08:01Z,51.5082167,-0.1268132,51.43,4.71,-0.003,110,99.8,34.2,AutoFlight
482,2024-01-15T10:08:02Z,51.5082333,-0.126816,50.35,5.16,-0.067,110,99.8,35.0,AutoFlight
483,2024-01-15T10:08:03Z,51.50825,-0.1268192,49.31,4.96,0.102,110,99.8,35.4,AutoFlight
484,2024-01-15T10:08:04Z,51.5082667,-0.1268225,49.59,5.23,0.022,110,99.8,33.6,AutoFlight
485,2024-01-15T10:08:05Z,51.5082833,-0.1268262,49.24,4.64,-0.05,110,99.8,34.2,AutoFlight
486,2024-01-15T10:08:06Z,51.5083,-0.1268301,50.02,5.38,0.042,110,99.8,35.8,AutoFlight
487,2024-01-15T10:08:07Z,51.5083167,-0.1268343,49.81,5.24,0.041,110,99.8,35.2,AutoFlight
488,2024-01-15T10:08:08Z,51.5083333,-0.1268388,49.7,5.25,0.163,110,99.8,34.1,AutoFlight
489,2024-01-15T10:08:09Z,51.50835,-0.1268435,49.94,5.15,-0.043,110,99.8,34.0,AutoFlight
490,2024-01-15T10:08:10Z,51.5083667,-0.1268485,51.47,4.93,0.173,110,99.8,34.2,AutoFlight
491,2024-01-15T10:08:11Z,51.5083833,-0.1268537,49.83,5.24,-0.021,110,99.8,34.0,AutoFlight
492,2024-01-15T10:08:12Z,51.5084,-0.1268593,49.42,5.08,-0.067,110,99.8,34.5,AutoFlight
493,2024-01-15T10:08:13Z,51.5084167,-0.1268651,48.19,4.83,-0.018,110,99.8,34.3,AutoFlight
494,2024-01-15T10:08:14Z,51.5084333,-0.1268711,49.21,4.73,0.007,110,99.8,35.3,AutoFlight
495,2024-01-15T10:08:15Z,51.50845,-0.1268774,48.88,4.92,0.098,110,99.8,34.7,AutoFlight
496,2024-01-15T10:08:16Z,51.5084667,-0.126884,49.92,4.86,0.001,110,99.8,34.5,AutoFlight
497,2024-01-15T10:08:17Z,51.5084833,-0.1268908,48.25,4.79,-0.195,110,99.8,35.2,AutoFlight
498,2024-01-15T10:08:18Z,51.5085,-0.1268978,50.66,4.76,0.08,110,99.8,35.8,AutoFlight
499,2024-01-15T10:08:19Z,51.5085167,-0.1269051,49.5,5.39,0.036,110,99.8,34.5,AutoFlight
500,2024-01-15T10:08:20Z,51.5085333,-0.1269127,49.12,4.83,-0.039,110,99.8,33.4,AutoFlight
501,2024-01-15T10:08:21Z,51.50855,-0.1269205,50.42,4.9,0.046,110,99.8,34.4,AutoFlight
502,2024-01-15T10:08:22Z,51.5085667,-0.1269286,52.4,4.5,-0.093,110,99.8,35.0,AutoFlight
503,2024-01-15T10:08:23Z,51.5085833,-0.1269369,51.89,4.7,0.183,110,99.8,34.2,AutoFlight
504,2024-01-15T10:08:24Z,51.5086,-0.1269454,51.03,5.02,0.223,110,99.8,35.5,AutoFlight
505,2024-01-15T10:08:25Z,51.5086167,-0.1269542,49.48,5.88,-0.112,110,99.8,34.5,AutoFlight
506,2024-01-15T10:08:26Z,51.5086333,-0.1269632,51.45,4.78,-0.064,110,99.8,34.7,AutoFlight
507,2024-01-15T10:08:27Z,51.50865,-0.1269724,50.36,5.12,-0.075,110,99.8,34.8,AutoFlight
508,2024-01-15T10:08:28Z,51.5086667,-0.1269819,50.51,5.45,0.033,110,99.8,34.1,AutoFlight
509,2024-01-15T10:08:29Z,51.5086833,-0.1269916,50.02,4.81,0.132,110,99.8,33.9,AutoFlight
510,2024-01-15T10:08:30Z,51.5087,-0.1270015,50.45,4.68,0.127,110,99.8,35.1,AutoFlight
511,2024-01-15T10:08:31Z,51.5087167,-0.1270117,50.18,5.15,-0.034,110,99.8,35.1,AutoFlight
512,2024-01-15T10:08:32Z,51.5087333,-0.127022,49.96,5.22,0.006,110,99.8,33.5,AutoFlight
513,2024-01-15T10:08:33Z,51.50875,-0.1270326,49.59,5.46,0.145,110,99.8,34.8,AutoFlight
514,2024-01-15T10:08:34Z,51.5087667,-0.1270434,49.9,4.9,0.063,110,99.8,35.0,AutoFlight
515,2024-01-15T10:08:35Z,51.5087833,-0.1270544,49.22,5.2,0.123,110,99.8,34.3,AutoFlight
516,2024-01-15T10:08:36Z,51.5088,-0.1270656,49.85,5.14,0.072,110,99.8,34.6,AutoFlight
517,2024-01-15T10:08:37Z,51.5088167,-0.127077,49.58,4.86,0.039,110,99.8,35.0,AutoFlight
518,2024-01-15T10:08:38Z,51.5088333,-0.1270886,49.98,4.59,-0.109,110,99.8,35.1,AutoFlight
519,2024-01-15T10:08:39Z,51.50885,-0.1271004,49.02,5.07,-0.036,110,99.8,34.5,AutoFlight
520,2024-01-15T10:08:40Z,51.5088667,-0.1271124,50.02,5.5,0.029,110,99.8,34.7,AutoFlight
521,2024-01-15T10:08:41Z,51.5088833,-0.1271246,48.82,5.15,0.114,110,99.8,35.1,AutoFlight
522,2024-01-15T10:08:42Z,51.5089,-0.127137,50.93,5.14,-0.13,110,99.8,34.8,AutoFlight
523,2024-01-15T10:08:43Z,51.5089167,-0.1271496,50.42,5.22,-0.049,110,99.8,34.8,AutoFlight
524,2024-01-15T10:08:44Z,51.5089333,-0.1271623,50.29,5.38,0.101,110,99.8,35.2,AutoFlight
525,2024-01-15T10:08:45Z,51.50895,-0.1271753,50.32,4.69,-0.11,110,99.8,34.8,AutoFlight
526,2024-01-15T10:08:46Z,51.5089667,-0.1271884,50.83,5.12,0.056,110,99.8,34.1,AutoFlight
527,2024-01-15T10:08:47Z,51.5089833,-0.1272016,48.83,5.34,-0.003,110,99.8,34.2,AutoFlight
528,2024-01-15T10:08:48Z,51.509,-0.1272151,50.71,5.08,0.295,110,99.8,35.5,AutoFlight
529,2024-01-15T10:08:49Z,51.5090167,-0.1272287,50.28,4.95,0.023,110,99.8,34.9,AutoFlight
530,2024-01-15T10:08:50Z,51.5090333,-0.1272424,48.85,5.28,0.027,110,99.8,33.6,AutoFlight
531,2024-01-15T10:08:51Z,51.50905,-0.1272564,49.49,4.75,0.098,110,99.8,34.9,AutoFlight
532,2024-01-15T10:08:52Z,51.5090667,-0.1272704,51.19,4.52,-0.108,110,99.8,35.5,AutoFlight
533,2024-01-15T10:08:53Z,51.5090833,-0.1272846,49.48,4.68,-0.053,110,99.8,34.6,AutoFlight
534,2024-01-15T10:08:54Z,51.5091,-0.127299,50.43,5.34,-0.159,110,99.8,34.8,AutoFlight
535,2024-01-15T10:08:55Z,51.5091167,-0.1273135,50.01,5.02,0.083,110,99.8,35.1,AutoFlight
536,2024-01-15T10:08:56Z,51.5091333,-0.1273281,49.54,4.67,-0.182,110,99.8,34.8,AutoFlight
537,2024-01-15T10:08:57Z,51.50915,-0.1273429,50.01,5.28,-0.038,110,99.8,36.2,AutoFlight
538,2024-01-15T10:08:58Z,51.5091667,-0.1273577,49.94,4.85,0.038,110,99.8,34.5,AutoFlight
539,2024-01-15T10:08:59Z,51.5091833,-0.1273728,50.17,4.38,0.068,110,99.8,35.1,AutoFlight
540,2024-01-15T10:09:00Z,51.5092,-0.1273879,50.17,5.05,-0.127,110,99.8,34.6,AutoFlight
541,2024-01-15T10:09:01Z,51.5092167,-0.1274031,51.25,5.15,-0.06,110,99.8,35.3,AutoFlight
542,2024-01-15T10:09:02Z,51.5092333,-0.1274185,50.33,5.59,0.111,110,99.8,35.3,AutoFlight
543,2024-01-15T10:09:03Z,51.50925,-0.1274339,49.64,5.54,-0.01,110,99.8,34.7,AutoFlight
544,2024-01-15T10:09:04Z,51.5092667,-0.1274495,49.02,4.74,-0.036,110,99.8,35.5,AutoFlight
545,2024-01-15T10:09:05Z,51.5092833,-0.1274652,50.73,5.35,0.015,110,99.8,35.5,AutoFlight
546,2024-01-15T10:09:06Z,51.5093,-0.1274809,51.81,5.27,0.16,110,99.8,34.4,AutoFlight
547,2024-01-15T10:09:07Z,51.5093167,-0.1274967,49.41,4.77,-0.268,110,99.8,35.2,AutoFlight
548,2024-01-15T10:09:08Z,51.5093333,-0.1275127,51.11,4.84,0.02,110,99.8,34.7,AutoFlight
549,2024-01-15T10:09:09Z,51.50935,-0.1275287,49.61,5.09,-0.12,110,99.8,35.7,AutoFlight
550,2024-01-15T10:09:10Z,51.5093667,-0.1275447,48.46,5.1,-0.049,110,99.8,35.9,AutoFlight
551,2024-01-15T10:09:11Z,51.5093833,-0.1275609,50.61,4.37,-0.242,110,99.8,34.7,AutoFlight
552,2024-01-15T10:09:12Z,51.5094,-0.1275771,49.6,4.94,0.003,110,99.8,35.5,AutoFlight
553,2024-01-15T10:09:13Z,51.5094167,-0.1275934,48.91,4.46,0.025,110,99.8,35.0,AutoFlight
554,2024-01-15T10:09:14Z,51.5094333,-0.1276097,49.92,4.81,-0.017,110,99.8,36.0,AutoFlight
555,2024-01-15T10:09:15Z,51.50945,-0.1276261,48.7,4.63,0.064,110,99.8,36.0,AutoFlight
556,2024-01-15T10:09:16Z,51.5094667,-0.1276425,49.84,4.62,-0.2,110,99.8,35.4,AutoFlight
557,2024-01-15T10:09:17Z,51.5094833,-0.127659,49.0,5.65,0.234,110,99.8,35.4,AutoFlight
558,2024-01-15T10:09:18Z,51.5095,-0.1276755,50.39,4.96,0.114,110,99.8,35.3,AutoFlight
559,2024-01-15T10:09:19Z,51.5095167,-0.1276921,50.05,5.41,0.063,110,99.8,36.3,AutoFlight
560,2024-01-15T10:09:20Z,51.5095333,-0.1277087,48.69,4.83,-0.09,110,99.8,35.7,AutoFlight
561,2024-01-15T10:09:21Z,51.50955,-0.1277253,49.61,5.18,-0.117,110,99.8,35.2,AutoFlight
562,2024-01-15T10:09:22Z,51.5095667,-0.1277419,51.84,5.49,-0.188,110,99.8,35.5,AutoFlight
563,2024-01-15T10:09:23Z,51.5095833,-0.1277586,50.66,4.85,-0.11,110,99.8,35.6,AutoFlight
564,2024-01-15T10:09:24Z,51.5096,-0.1277752,50.08,5.17,-0.016,110,99.8,36.5,AutoFlight
565,2024-01-15T10:09:25Z,51.5096167,-0.1277919,49.27,4.85,0.051,110,99.8,35.7,AutoFlight
566,2024-01-15T10:09:26Z,51.5096333,-0.1278086,48.9,5.39,-0.146,110,99.8,35.3,AutoFlight
567,2024-01-15T10:09:27Z,51.50965,-0.1278252,49.75,4.79,0.113,110,99.8,34.2,AutoFlight
568,2024-01-15T10:09:28Z,51.5096667,-0.1278419,49.42,4.73,0.087,110,99.8,36.1,AutoFlight
569,2024-01-15T10:09:29Z,51.5096833,-0.1278585,50.62,5.42,-0.222,110,99.8,35.5,AutoFlight
570,2024-01-15T10:09:30Z,51.5097,-0.1278752,48.89,4.89,0.024,110,99.8,35.4,AutoFlight
571,2024-01-15T10:09:31Z,51.5097167,-0.1278918,51.1,4.41,-0.084,110,99.8,34.7,AutoFlight
572,2024-01-15T10:09:32Z,51.5097333,-0.1279083,48.69,5.3,0.018,110,99.8,36.2,AutoFlight
573,2024-01-15T10:09:33Z,51.50975,-0.1279249,50.95,5.02,-0.097,110,99.8,35.9,AutoFlight
574,2024-01-15T10:09:34Z,51.5097667,-0.1279414,49.45,4.64,-0.115,110,99.8,35.5,AutoFlight
575,2024-01-15T10:09:35Z,51.5097833,-0.1279579,51.01,5.02,0.122,110,99.8,35.5,AutoFlight
576,2024-01-15T10:09:36Z,51.5098,-0.1279743,49.66,5.82,0.182,110,99.8,35.6,AutoFlight
577,2024-01-15T10:09:37Z,51.5098167,-0.1279907,49.33,4.52,0.04,110,99.8,35.3,AutoFlight
578,2024-01-15T10:09:38Z,51.5098333,-0.128007,50.37,5.1,0.044,110,99.8,36.0,AutoFlight
579,2024-01-15T10:09:39Z,51.50985,-0.1280233,50.25,4.78,-0.077,110,99.8,35.8,AutoFlight
580,2024-01-15T10:09:40Z,51.5098667,-0.1280395,49.14,5.22,0.071,110,99.8,35.5,AutoFlight
581,2024-01-15T10:09:41Z,51.5098833,-0.1280557,49.37,4.47,-0.112,110,99.8,34.7,AutoFlight
582,2024-01-15T10:09:42Z,51.5099,-0.1280718,50.02,4.87,-0.092,110,99.8,36.0,AutoFlight
583,2024-01-15T10:09:43Z,51.5099167,-0.1280878,50.1,5.01,0.056,110,99.8,36.0,AutoFlight
584,2024-01-15T10:09:44Z,51.5099333,-0.1281037,48.72,5.21,-0.181,110,99.8,35.1,AutoFlight
585,2024-01-15T10:09:45Z,51.50995,-0.1281195,50.81,5.21,0.066,110,99.8,35.6,AutoFlight
586,2024-01-15T10:09:46Z,51.5099667,-0.1281353,51.13,4.54,-0.031,110,99.8,35.6,AutoFlight
587,2024-01-15T10:09:47Z,51.5099833,-0.1281509,51.63,5.31,0.104,110,99.8,35.2,AutoFlight
588,2024-01-15T10:09:48Z,51.51,-0.1281665,51.8,5.14,-0.101,110,99.8,36.8,AutoFlight
589,2024-01-15T10:09:49Z,51.5100167,-0.1281819,48.86,4.74,-0.023,110,99.8,35.1,AutoFlight
590,2024-01-15T10:09:50Z,51.5100333,-0.1281973,50.42,5.08,0.011,110,99.8,36.6,AutoFlight
591,2024-01-15T10:09:51Z,51.51005,-0.1282125,48.69,5.41,-0.082,110,99.8,36.3,AutoFlight
592,2024-01-15T10:09:52Z,51.5100667,-0.1282276,51.52,5.69,-0.019,110,99.8,35.0,AutoFlight
593,2024-01-15T10:09:53Z,51.5100833,-0.1282427,50.26,4.98,-0.176,110,99.8,36.0,AutoFlight
594,2024-01-15T10:09:54Z,51.5101,-0.1282575,49.26,5.43,0.097,110,99.8,35.5,AutoFlight
595,2024-01-15T10:09:55Z,51.5101167,-0.1282723,50.03,4.93,-0.046,110,99.8,37.2,AutoFlight
596,2024-01-15T10:09:56Z,51.5101333,-0.1282869,49.25,5.02,0.099,110,99.8,35.5,AutoFlight
597,2024-01-15T10:09:57Z,51.51015,-0.1283014,49.5,4.6,0.119,110,99.8,36.0,AutoFlight
598,2024-01-15T10:09:58Z,51.5101667,-0.1283158,50.38,4.55,0.05,110,99.8,35.8,AutoFlight
599,2024-01-15T10:09:59Z,51.5101833,-0.12833,49.73,4.59,-0.006,110,99.8,35.3,AutoFlight
600,2024-01-15T10:10:00Z,51.5104,-0.128344,50.06,5.02,-0.034,115,99.8,36.2,AutoFlight
601,2024-01-15T10:10:01Z,51.5103833,-0.1283579,49.95,5.16,0.042,115,99.8,36.2,AutoFlight
602,2024-01-15T10:10:02Z,51.5103667,-0.1283717,49.23,4.9,0.092,115,99.8,35.8,AutoFlight
603,2024-01-15T10:10:03Z,51.51035,-0.1283853,50.9,5.22,-0.044,115,99.8,36.2,AutoFlight
604,2024-01-15T10:10:04Z,51.5103333,-0.1283987,49.79,5.29,0.185,115,99.8,36.3,AutoFlight
605,2024-01-15T10:10:05Z,51.5103167,-0.128412,51.83,4.53,-0.055,115,99.8,35.6,AutoFlight
606,2024-01-15T10:10:06Z,51.5103,-0.1284251,49.68,5.11,-0.037,115,99.8,36.3,AutoFlight
607,2024-01-15T10:10:07Z,51.5102833,-0.128438,50.79,5.12,-0.101,115,99.8,36.1,AutoFlight
608,2024-01-15T10:10:08Z,51.5102667,-0.1284507,50.54,5.11,0.003,115,99.8,36.5,AutoFlight
609,2024-01-15T10:10:09Z,51.51025,-0.1284633,49.56,4.89,0.067,115,99.8,36.1,AutoFlight
610,2024-01-15T10:10:10Z,51.5102333,-0.1284757,50.68,4.91,-0.131,115,99.8,35.2,AutoFlight
611,2024-01-15T10:10:11Z,51.5102167,-0.1284879,49.65,5.24,0.079,115,99.8,34.9,AutoFlight
612,2024-01-15T10:10:12Z,51.5102,-0.1284999,50.43,4.97,-0.104,115,99.8,36.9,AutoFlight
613,2024-01-15T10:10:13Z,51.5101833,-0.1285117,50.21,5.25,0.257,115,99.8,35.6,AutoFlight
614,2024-01-15T10:10:14Z,51.5101667,-0.1285233,49.68,5.45,-0.131,115,99.8,35.9,AutoFlight
615,2024-01-15T10:10:15Z,51.51015,-0.1285347,50.04,5.29,0.041,115,99.8,35.4,AutoFlight
616,2024-01-15T10:10:16Z,51.5101333,-0.1285459,50.78,5.25,-0.105,115,99.8,35.5,AutoFlight
617,2024-01-15T10:10:17Z,51.5101167,-0.1285569,49.58,4.66,0.106,115,99.8,35.7,AutoFlight
618,2024-01-15T10:10:18Z,51.5101,-0.1285677,49.78,4.69,-0.039,115,99.8,36.6,AutoFlight
619,2024-01-15T10:10:19Z,51.5100833,-0.1285783,50.6,4.51,-0.099,115,99.8,36.2,AutoFlight
620,2024-01-15T10:10:20Z,51.5100667,-0.1285886,49.6,4.83,-0.086,115,99.8,35.3,AutoFlight
621,2024-01-15T10:10:21Z,51.51005,-0.1285988,50.08,4.89,0.114,115,99.8,35.9,AutoFlight
622,2024-01-15T10:10:22Z,51.5100333,-0.1286087,49.23,5.21,0.135,115,99.8,35.6,AutoFlight
623,2024-01-15T10:10:23Z,51.5100167,-0.1286184,48.64,4.86,-0.135,115,99.8,36.8,AutoFlight
624,2024-01-15T10:10:24Z,51.51,-0.1286278,48.89,4.9,0.147,115,99.8,36.4,AutoFlight
625,2024-01-15T10:10:25Z,51.5099833,-0.1286371,49.59,4.77,-0.018,115,99.8,35.9,AutoFlight
626,2024-01-15T10:10:26Z,51.5099667,-0.1286461,51.2,4.95,-0.135,115,99.8,36.5,AutoFlight
627,2024-01-15T10:10:27Z,51.50995,-0.1286548,50.83,4.93,0.077,115,99.8,36.0,AutoFlight
628,2024-01-15T10:10:28Z,51.5099333,-0.1286634,49.03,4.98,-0.114,115,99.8,35.7,AutoFlight
629,2024-01-15T10:10:29Z,51.5099167,-0.1286716,49.25,5.1,0.019,115,99.8,35.4,AutoFlight
630,2024-01-15T10:10:30Z,51.5099,-0.1286797,49.26,5.0,0.046,115,99.8,36.1,AutoFlight
631,2024-01-15T10:10:31Z,51.5098833,-0.1286875,48.23,5.39,0.177,115,99.8,36.8,AutoFlight
632,2024-01-15T10:10:32Z,51.5098667,-0.1286951,50.44,5.2,-0.065,115,99.8,36.1,AutoFlight
633,2024-01-15T10:10:33Z,51.50985,-0.1287024,49.1,5.04,-0.143,115,99.8,36.4,AutoFlight
634,2024-01-15T10:10:34Z,51.5098333,-0.1287094,49.72,5.23,0.018,115,99.8,35.8,AutoFlight
635,2024-01-15T10:10:35Z,51.5098167,-0.1287162,50.67,4.65,-0.026,115,99.8,35.8,AutoFlight
636,2024-01-15T10:10:36Z,51.5098,-0.1287228,50.6,4.98,0.027,115,99.8,36.4,AutoFlight
637,2024-01-15T10:10:37Z,51.5097833,-0.1287291,48.12,4.72,0.012,115,99.8,36.6,AutoFlight
638,2024-01-15T10:10:38Z,51.5097667,-0.1287351,50.46,5.39,-0.022,115,99.8,36.2,AutoFlight
639,2024-01-15T10:10:39Z,51.50975,-0.1287409,49.6,4.87,-0.083,115,99.8,35.9,AutoFlight
640,2024-01-15T10:10:40Z,51.5097333,-0.1287464,49.85,4.8,0.003,115,99.8,35.2,AutoFlight
641,2024-01-15T10:10:41Z,51.5097167,-0.1287516,50.34,5.05,0.045,115,99.8,35.9,AutoFlight
642,2024-01-15T10:10:42Z,51.5097,-0.1287566,49.59,5.29,-0.015,115,99.8,37.1,AutoFlight
643,2024-01-15T10:10:43Z,51.5096833,-0.1287614,48.88,4.93,-0.113,115,99.8,35.8,AutoFlight
644,2024-01-15T10:10:44Z,51.5096667,-0.1287658,49.37,4.86,0.078,115,99.8,35.6,AutoFlight
645,2024-01-15T10:10:45Z,51.50965,-0.12877,50.49,4.57,-0.041,115,99.8,36.8,AutoFlight
646,2024-01-15T10:10:46Z,51.5096333,-0.1287739,50.37,5.08,0.063,115,99.8,36.5,AutoFlight
647,2024-01-15T10:10:47Z,51.5096167,-0.1287776,50.5,5.42,-0.104,115,99.8,36.2,AutoFlight
648,2024-01-15T10:10:48Z,51.5096,-0.1287809,50.51,5.22,0.056,115,99.8,36.9,AutoFlight
649,2024-01-15T10:10:49Z,51.5095833,-0.128784,49.6,4.6,0.127,115,99.8,36.2,AutoFlight
650,2024-01-15T10:10:50Z,51.5095667,-0.1287869,49.56,5.01,-0.043,115,99.8,36.7,AutoFlight
651,2024-01-15T10:10:51Z,51.50955,-0.1287894,50.71,5.09,0.054,115,99.8,36.3,AutoFlight
652,2024-01-15T10:10:52Z,51.5095333,-0.1287917,50.82,4.29,-0.117,115,99.8,36.2,AutoFlight
653,2024-01-15T10:10:53Z,51.5095167,-0.1287937,49.67,4.71,0.062,115,99.8,35.8,AutoFlight
654,2024-01-15T10:10:54Z,51.5095,-0.1287954,50.17,5.04,0.006,115,99.8,35.9,AutoFlight
655,2024-01-15T10:10:55Z,51.5094833,-0.1287969,49.85,5.37,0.054,115,99.8,36.8,AutoFlight
656,2024-01-15T10:10:56Z,51.5094667,-0.1287981,49.94,4.49,-0.047,115,99.8,36.2,AutoFlight
657,2024-01-15T10:10:57Z,51.50945,-0.128799,51.04,5.34,0.042,115,99.8,35.9,AutoFlight
658,2024-01-15T10:10:58Z,51.5094333,-0.1287996,50.1,4.92,-0.024,115,99.8,35.7,AutoFlight
659,2024-01-15T10:10:59Z,51.5094167,-0.1287999,50.37,4.99,0.08,115,99.8,35.6,AutoFlight
660,2024-01-15T10:11:00Z,51.5094,-0.1288,49.1,6.09,-0.088,115,99.8,36.5,AutoFlight
661,2024-01-15T10:11:01Z,51.5093833,-0.1287998,50.35,4.71,0.173,115,99.8,36.3,AutoFlight
662,2024-01-15T10:11:02Z,51.5093667,-0.1287993,50.12,5.55,-0.079,115,99.8,36.1,AutoFlight
663,2024-01-15T10:11:03Z,51.50935,-0.1287985,49.72,4.59,0.028,115,99.8,36.6,AutoFlight
664,2024-01-15T10:11:04Z,51.5093333,-0.1287975,50.15,5.2,0.087,115,99.8,36.5,AutoFlight
665,2024-01-15T10:11:05Z,51.5093167,-0.1287962,49.81,5.37,-0.07,115,99.8,37.1,AutoFlight
666,2024-01-15T10:11:06Z,51.5093,-0.1287946,49.85,5.23,0.183,115,99.8,35.3,AutoFlight
667,2024-01-15T10:11:07Z,51.5092833,-0.1287927,49.85,4.88,0.171,115,99.8,36.2,AutoFlight
668,2024-01-15T10:11:08Z,51.5092667,-0.1287905,52.18,4.54,0.035,115,99.8,36.2,AutoFlight
669,2024-01-15T10:11:09Z,51.50925,-0.1287881,50.4,4.83,-0.045,115,99.8,35.5,AutoFlight
670,2024-01-15T10:11:10Z,51.5092333,-0.1287854,50.09,4.55,-0.131,115,99.8,36.5,AutoFlight
671,2024-01-15T10:11:11Z,51.5092167,-0.1287824,49.9,5.31,-0.135,115,99.8,36.7,AutoFlight
672,2024-01-15T10:11:12Z,51.5092,-0.1287792,50.26,4.91,-0.08,115,99.8,36.4,AutoFlight
673,2024-01-15T10:11:13Z,51.5091833,-0.1287757,50.71,4.89,0.085,115,99.8,36.3,AutoFlight
674,2024-01-15T10:11:14Z,51.5091667,-0.1287719,51.38,5.01,-0.018,115,99.8,35.7,AutoFlight
